{
"type": "FeatureCollection",
"name": "hotel",
"crs": { "type": "name", "properties": { "name": "urn:ogc:def:crs:OGC:1.3:CRS84" } },
"features": [
{ "type": "Feature", "properties": { "NAME": "如家酒店(西乡地铁站店)", "ADDRESS": "广东省深圳市宝安区西乡大道298-7号", "AREA": "宝安区", "STREETID": "d146b38822dd2cc77502699b", "TELEPHONE": "(0755)23066833,(0755)23066833-9" }, "geometry": { "type": "MultiPoint", "coordinates": [ [ 113.866624, 22.575855 ] ] } },
{ "type": "Feature", "properties": { "NAME": "长丰花园酒店", "ADDRESS": "广东省深圳市宝安区洲石路22号", "AREA": "宝安区", "STREETID": "33fbfa83329854d80bf5eb42", "TELEPHONE": "(0755)29008888" }, "geometry": { "type": "MultiPoint", "coordinates": [ [ 113.927841, 22.678389 ] ] } },
{ "type": "Feature", "properties": { "NAME": "7天酒店(石岩店)", "ADDRESS": "广东省深圳市宝安区松白路168号", "AREA": "宝安区", "STREETID": "9f6afe39d509cfd84e776e43", "TELEPHONE": "(0755)27775777" }, "geometry": { "type": "MultiPoint", "coordinates": [ [ 113.927019, 22.656546 ] ] } },
{ "type": "Feature", "properties": { "NAME": "维也纳酒店(燕川店)", "ADDRESS": "广东省深圳市宝安区红湖路32号", "AREA": "宝安区", "STREETID": "3a89663e7ef3e345e5e9658e", "TELEPHONE": "(0755)27086888" }, "geometry": { "type": "MultiPoint", "coordinates": [ [ 113.869515, 22.807806 ] ] } },
{ "type": "Feature", "properties": { "NAME": "汉庭酒店(彩虹城店)", "ADDRESS": "广东省深圳市宝安区前进二路93号彩虹城1楼(近宝安客运中心美兰商务中心)", "AREA": "宝安区", "STREETID": "ad862bf9bce471835e17c38a", "TELEPHONE": "(0755)29660555,(0755)29660555-0" }, "geometry": { "type": "MultiPoint", "coordinates": [ [ 113.888283, 22.596684 ] ] } },
{ "type": "Feature", "properties": { "NAME": "汉庭酒店(松岗地铁站店)", "ADDRESS": "广东省深圳市宝安区河滨北路12号盛华大厦b栋", "AREA": "宝安区", "STREETID": "7d0b5cc4787f569d88fc06b0", "TELEPHONE": "(0755)33082266" }, "geometry": { "type": "MultiPoint", "coordinates": [ [ 113.83988, 22.774591 ] ] } },
{ "type": "Feature", "properties": { "NAME": "7天酒店(石岩店)", "ADDRESS": "广东省深圳市宝安区松白路168号", "AREA": "宝安区", "STREETID": "9f6afe39d509cfd84e776e43", "TELEPHONE": "(0755)27775777" }, "geometry": { "type": "MultiPoint", "coordinates": [ [ 113.927019, 22.656546 ] ] } },
{ "type": "Feature", "properties": { "NAME": "7天酒店(深圳机场固戍地铁站店)", "ADDRESS": "广东省深圳市宝安区固戍一路236号", "AREA": "宝安区", "STREETID": "631c41573c7a8c7831f71d42", "TELEPHONE": "(0755)27340703,(0755)85266277" }, "geometry": { "type": "MultiPoint", "coordinates": [ [ 113.85505, 22.602494 ] ] } },
{ "type": "Feature", "properties": { "NAME": "维也纳酒店(京基百纳店)", "ADDRESS": "广东省深圳市宝安区沙井路116号", "AREA": "宝安区", "STREETID": "66a43f208049834d26d2bb03", "TELEPHONE": "(0755)27220555" }, "geometry": { "type": "MultiPoint", "coordinates": [ [ 113.812851, 22.729475 ] ] } },
{ "type": "Feature", "properties": { "NAME": "汉永瑞酒店(深圳机场店)", "ADDRESS": "深圳市宝安区宝安大道与福洲大道交叉路口往南约90米", "AREA": "宝安区", "STREETID": "2ed0263912dea1955e17c387", "TELEPHONE": "(0755)32936868" }, "geometry": { "type": "MultiPoint", "coordinates": [ [ 113.811916, 22.680025 ] ] } },
{ "type": "Feature", "properties": { "NAME": "蓝航精品酒店(深圳宝安国际机场固戍地铁站店)", "ADDRESS": "广东省深圳市宝安区航城大道159号航城工业区商住楼1栋110室", "AREA": "宝安区", "STREETID": "d01f7fe383ccd71c871541a1", "TELEPHONE": "(0755)29855789" }, "geometry": { "type": "MultiPoint", "coordinates": [ [ 113.853852, 22.611144 ] ] } },
{ "type": "Feature", "properties": { "NAME": "山林商务酒店", "ADDRESS": "广东省深圳市宝安区凤凰山大道95号", "AREA": "宝安区", "STREETID": "8d93a0d3eddf6f014d776ee8", "TELEPHONE": "(0755)27306888" }, "geometry": { "type": "MultiPoint", "coordinates": [ [ 113.849256, 22.691903 ] ] } },
{ "type": "Feature", "properties": { "NAME": "荷塘月色主题酒店(西乡店)", "ADDRESS": "广东省深圳市宝安区荔园路118号永安商业城3层", "AREA": "宝安区", "STREETID": "3eb55cd16c787466250bd0c7", "TELEPHONE": "(0755)86330331" }, "geometry": { "type": "MultiPoint", "coordinates": [ [ 113.887311, 22.581954 ] ] } },
{ "type": "Feature", "properties": { "NAME": "OYO徽商168酒店(天宝路店)", "ADDRESS": "广东省深圳市宝安区天宝路19号", "AREA": "宝安区", "STREETID": "74636813a6b3830dc42ba114", "TELEPHONE": "(0755)36606168" }, "geometry": { "type": "MultiPoint", "coordinates": [ [ 113.935002, 22.647288 ] ] } },
{ "type": "Feature", "properties": { "NAME": "山林商务酒店", "ADDRESS": "广东省深圳市宝安区凤凰山大道95号", "AREA": "宝安区", "STREETID": "8d93a0d3eddf6f014d776ee8", "TELEPHONE": "(0755)27306888" }, "geometry": { "type": "MultiPoint", "coordinates": [ [ 113.849256, 22.691903 ] ] } },
{ "type": "Feature", "properties": { "NAME": "栀子花时尚酒店(深圳翻身地铁站店)", "ADDRESS": "广东省深圳市宝安区翻身路139号房", "AREA": "宝安区", "STREETID": "43b7e88972a1a41458f6befa", "TELEPHONE": "(0755)27889447" }, "geometry": { "type": "MultiPoint", "coordinates": [ [ 113.89928, 22.568231 ] ] } },
{ "type": "Feature", "properties": { "NAME": "OYO快八连锁酒店(松岗店)", "ADDRESS": "广东省深圳市宝安区松明大道155号", "AREA": "宝安区", "STREETID": "b597a7714dabe56f75e5b6f1", "TELEPHONE": "(0755)28036188,(0755)29932828" }, "geometry": { "type": "MultiPoint", "coordinates": [ [ 113.842421, 22.771166 ] ] } },
{ "type": "Feature", "properties": { "NAME": "快8连锁酒店(松岗立业店)", "ADDRESS": "广东省深圳市宝安区立业路42号", "AREA": "宝安区", "STREETID": "f1ab1c01310df1a896ca0777", "TELEPHONE": "(0755)28036188" }, "geometry": { "type": "MultiPoint", "coordinates": [ [ 113.860083, 22.774609 ] ] } },
{ "type": "Feature", "properties": { "NAME": "汉庭酒店(深圳宝安机场航站楼店原新航站楼店)", "ADDRESS": "广东省深圳市宝安区宝安大道5005号", "AREA": "宝安区", "STREETID": "cd7a69869a731dcf8f55eca9", "TELEPHONE": "(0755)29082888" }, "geometry": { "type": "MultiPoint", "coordinates": [ [ 113.847285, 22.618277 ] ] } },
{ "type": "Feature", "properties": { "NAME": "壹航酒店(深圳机场店)", "ADDRESS": "深圳市宝安区后瑞社区新瑞路17号壹航城(后瑞地铁站B出口右侧)", "AREA": "宝安区", "STREETID": "8859663fc5cd674504fef539", "TELEPHONE": "(0755)29995711,18038188743" }, "geometry": { "type": "MultiPoint", "coordinates": [ [ 113.841598, 22.635953 ] ] } },
{ "type": "Feature", "properties": { "NAME": "皇家假日酒店", "ADDRESS": "广东省深圳市宝安区宝石南路浪心西村1巷14号", "AREA": "宝安区", "STREETID": "8d6929a4ae44b9bac51e510e", "TELEPHONE": "(0755)23331588" }, "geometry": { "type": "MultiPoint", "coordinates": [ [ 113.936418, 22.682606 ] ] } },
{ "type": "Feature", "properties": { "NAME": "城市便捷酒店(西乡流塘店)", "ADDRESS": "广东省深圳市宝安区建安二路63号", "AREA": "宝安区", "STREETID": "63b222aaa66474ec82288ad2", "TELEPHONE": "(0755)27586088" }, "geometry": { "type": "MultiPoint", "coordinates": [ [ 113.893613, 22.585859 ] ] } },
{ "type": "Feature", "properties": { "NAME": "熙园酒店(松岗地铁站店)", "ADDRESS": "广东省深圳市宝安区107国道松岗段441号", "AREA": "宝安区", "STREETID": "d24e48ebea782dadaeee7a9b", "TELEPHONE": "(0755)29909099" }, "geometry": { "type": "MultiPoint", "coordinates": [ [ 113.845863, 22.78562 ] ] } },
{ "type": "Feature", "properties": { "NAME": "OYO金海悦商务宾馆(宝安区青年路店)", "ADDRESS": "广东省深圳市宝安区青年东路38号", "AREA": "宝安区", "STREETID": "e85e2527461a715394f08c9c", "TELEPHONE": "(0755)29820333" }, "geometry": { "type": "MultiPoint", "coordinates": [ [ 113.933477, 22.680026 ] ] } },
{ "type": "Feature", "properties": { "NAME": "锦江之星品尚(碧头地铁站店)", "ADDRESS": "深圳市宝安区松岗街道朗碧路沙浦围创业科技园20栋地铁11号线碧头站D出口旁", "AREA": "宝安区", "STREETID": "706fb1b0374627f2c356ac6b", "TELEPHONE": "(0755)29899299,(0755)29899299-0" }, "geometry": { "type": "MultiPoint", "coordinates": [ [ 113.826917, 22.788997 ] ] } },
{ "type": "Feature", "properties": { "NAME": "九龙快捷酒店(环镇路店)", "ADDRESS": "广东省深圳市宝安区环镇路君爵4楼", "AREA": "宝安区", "STREETID": "cdef4edf8d403d4e28d7abe6", "TELEPHONE": "(0755)27722766" }, "geometry": { "type": "MultiPoint", "coordinates": [ [ 113.818326, 22.744874 ] ] } },
{ "type": "Feature", "properties": { "NAME": "维客快捷酒店(深圳机场后瑞地铁站店)", "ADDRESS": "广东省深圳市宝安区三区一巷6号", "AREA": "宝安区", "STREETID": "de18276805fd18dc0e3ddad8", "TELEPHONE": "(0755)82593069" }, "geometry": { "type": "MultiPoint", "coordinates": [ [ 113.842847, 22.634952 ] ] } },
{ "type": "Feature", "properties": { "NAME": "维也纳酒店(八卦路店)", "ADDRESS": "广东省深圳市福田区八卦路55号经理大厦综合楼", "AREA": "福田区", "STREETID": "44a6673e5c6eab29bca822d3", "TELEPHONE": "(0755)83608999" }, "geometry": { "type": "MultiPoint", "coordinates": [ [ 114.105872, 22.570723 ] ] } },
{ "type": "Feature", "properties": { "NAME": "深圳金马时尚酒店(巴丁店)", "ADDRESS": "广东省深圳市福田区巴登街15号", "AREA": "福田区", "STREETID": "925c550f84820bab5a3ac87d", "TELEPHONE": "(0755)82244606,(0755)82248058" }, "geometry": { "type": "MultiPoint", "coordinates": [ [ 114.10873, 22.544206 ] ] } },
{ "type": "Feature", "properties": { "NAME": "城家高级公寓(深圳红岭北地铁站店)", "ADDRESS": "广东省深圳市福田区八卦三路6号光纤小区3栋", "AREA": "福田区", "STREETID": "4c617ae3d647854cd3ff2322", "TELEPHONE": "18025313577" }, "geometry": { "type": "MultiPoint", "coordinates": [ [ 114.109827, 22.568792 ] ] } },
{ "type": "Feature", "properties": { "NAME": "莱卡橙子酒店(华强北店)", "ADDRESS": "广东省深圳市福田区振中路68号", "AREA": "福田区", "STREETID": "fdd661b0854f42aa8d1a8951", "TELEPHONE": "(0755)82566533" }, "geometry": { "type": "MultiPoint", "coordinates": [ [ 114.099876, 22.54879 ] ] } },
{ "type": "Feature", "properties": { "NAME": "海友酒店(华强路地铁站店)", "ADDRESS": "广东省深圳市福田区深南中路3027号华强花园d座", "AREA": "福田区", "STREETID": "0c22e1cdf371137c42e192bc", "TELEPHONE": "(0755)83000766" }, "geometry": { "type": "MultiPoint", "coordinates": [ [ 114.09064, 22.544318 ] ] } },
{ "type": "Feature", "properties": { "NAME": "荣登客栈", "ADDRESS": "广东省深圳市福田区八卦三路100号3楼", "AREA": "福田区", "STREETID": "d7616c4254cb12cc9a0050ca", "TELEPHONE": "(0755)25860390,(0755)85555118" }, "geometry": { "type": "MultiPoint", "coordinates": [ [ 114.106556, 22.568472 ] ] } },
{ "type": "Feature", "properties": { "NAME": "东海明珠酒店", "ADDRESS": "广东省深圳市光明区民生路268号", "AREA": "光明区", "STREETID": "f757e6ee7645890e260bd061", "TELEPHONE": "18165709188" }, "geometry": { "type": "MultiPoint", "coordinates": [ [ 113.899752, 22.791414 ] ] } },
{ "type": "Feature", "properties": { "NAME": "维也纳酒店(公明广场地铁站店)", "ADDRESS": "广东省深圳市光明区松白路5013号", "AREA": "光明区", "STREETID": "0743d667a3547f09a3acc4d4", "TELEPHONE": "(0755)29895678" }, "geometry": { "type": "MultiPoint", "coordinates": [ [ 113.898141, 22.783019 ] ] } },
{ "type": "Feature", "properties": { "NAME": "豪庭酒店(深圳光明实验学校店)", "ADDRESS": "广东省深圳市光明区东隆路68号", "AREA": "光明区", "STREETID": "de11e8c7f34081393c9a5ee9", "TELEPHONE": "(0755)27128918" }, "geometry": { "type": "MultiPoint", "coordinates": [ [ 113.920987, 22.761668 ] ] } },
{ "type": "Feature", "properties": { "NAME": "深圳富苑连锁酒店(金富苑店)", "ADDRESS": "广东省深圳市光明区振明路8号", "AREA": "光明区", "STREETID": "724d17acffa29e12f50e772f", "TELEPHONE": "(0755)26667979" }, "geometry": { "type": "MultiPoint", "coordinates": [ [ 113.913752, 22.776939 ] ] } },
{ "type": "Feature", "properties": { "NAME": "amigo米阁酒店(深圳公明广场地铁站店)", "ADDRESS": "广东省深圳市光明区松白路4758号富豪花园b区6栋", "AREA": "光明区", "STREETID": "fbc363736d5395133fe231c6", "TELEPHONE": "(0755)82328901" }, "geometry": { "type": "MultiPoint", "coordinates": [ [ 113.900038, 22.783484 ] ] } },
{ "type": "Feature", "properties": { "NAME": "OYO章华宾馆(红花山公园长春中路店)", "ADDRESS": "广东省深圳市光明区金辉路11-31号富豪花园b区1栋", "AREA": "光明区", "STREETID": "1c36a765b07d116d2cb17e7c", "TELEPHONE": "(0755)27108267,18924587710" }, "geometry": { "type": "MultiPoint", "coordinates": [ [ 113.900024, 22.784071 ] ] } },
{ "type": "Feature", "properties": { "NAME": "蓝图花园酒店(龙岗大运中心爱联地铁站店)", "ADDRESS": "广东省深圳市龙岗区如意路283号金顺大厦b栋19楼", "AREA": "龙岗区", "STREETID": "708aceb476a784e9471a3261", "TELEPHONE": "1" }, "geometry": { "type": "MultiPoint", "coordinates": [ [ 114.233092, 22.707555 ] ] } },
{ "type": "Feature", "properties": { "NAME": "尤克里里酒店(深圳别墅分店)", "ADDRESS": "广东省深圳市龙岗区新东路27号", "AREA": "龙岗区", "STREETID": "73be9c9b9ba3d8e49ee32174", "TELEPHONE": "13316937418" }, "geometry": { "type": "MultiPoint", "coordinates": [ [ 114.560349999324501, 22.552815890656468 ] ] } },
{ "type": "Feature", "properties": { "NAME": "维也纳3好酒店(富民路店)", "ADDRESS": "广东省深圳市龙岗区富民路8-1号", "AREA": "龙岗区", "STREETID": "6bf98266363308d908f5eb00", "TELEPHONE": "(0755)89222888" }, "geometry": { "type": "MultiPoint", "coordinates": [ [ 114.150614, 22.678981 ] ] } },
{ "type": "Feature", "properties": { "NAME": "如家酒店(布吉老街店)", "ADDRESS": "广东省深圳市龙岗区吉信街8号九矿大厦c区5层", "AREA": "龙岗区", "STREETID": "cafc2dccc6eabc08a104644e", "TELEPHONE": "(0755)33910618" }, "geometry": { "type": "MultiPoint", "coordinates": [ [ 114.123285, 22.60749 ] ] } },
{ "type": "Feature", "properties": { "NAME": "丽湾酒店", "ADDRESS": "广东省深圳市龙岗区新生路1号", "AREA": "龙岗区", "STREETID": "0ed20a154595968e57bfff43", "TELEPHONE": "(0755)84840000" }, "geometry": { "type": "MultiPoint", "coordinates": [ [ 114.288029, 22.745143 ] ] } },
{ "type": "Feature", "properties": { "NAME": "深圳泊莱酒店(坂田华为店)", "ADDRESS": "广东省深圳市龙岗区吉华路535号", "AREA": "龙岗区", "STREETID": "a8e534415c09380cb8bd6390", "TELEPHONE": "(0755)89508222" }, "geometry": { "type": "MultiPoint", "coordinates": [ [ 114.077219, 22.644856 ] ] } },
{ "type": "Feature", "properties": { "NAME": "朵拉清水湾酒店(深圳横岗塘坑地铁站店)", "ADDRESS": "广东省深圳市龙岗区横岗街道六约社区龙岗大道3132号101整栋隔壁", "AREA": "龙岗区", "STREETID": "d5780348e838b95f8e1a898c", "TELEPHONE": "(0755)28211888,(0755)28629159,18165708235" }, "geometry": { "type": "MultiPoint", "coordinates": [ [ 114.201029, 22.644684 ] ] } },
{ "type": "Feature", "properties": { "NAME": "维也纳3好酒店(深圳坂田光雅园地铁站店)", "ADDRESS": "广东省深圳市龙岗区坂田街道永香路8号近五和大道、坂雪岗大道", "AREA": "龙岗区", "STREETID": "dc18cb37fc7905ecb2077d4e", "TELEPHONE": "(0755)89509666" }, "geometry": { "type": "MultiPoint", "coordinates": [ [ 114.072985, 22.625464 ] ] } },
{ "type": "Feature", "properties": { "NAME": "圣德堡酒店", "ADDRESS": "广东省深圳市龙岗区龙岗大道3002号", "AREA": "龙岗区", "STREETID": "aa40108b6290220cc5effb42", "TELEPHONE": "(0755)33618888" }, "geometry": { "type": "MultiPoint", "coordinates": [ [ 114.195422, 22.642324 ] ] } },
{ "type": "Feature", "properties": { "NAME": "如家酒店(新马商贸城店)", "ADDRESS": "广东省深圳市龙岗区龙岗大道横岗段4004号力嘉工业区", "AREA": "龙岗区", "STREETID": "87fcc5e96a2e576dfb2213bb", "TELEPHONE": "(0755)28432343" }, "geometry": { "type": "MultiPoint", "coordinates": [ [ 114.209368, 22.648441 ] ] } },
{ "type": "Feature", "properties": { "NAME": "汉庭酒店(大鹏店)", "ADDRESS": "广东省深圳市龙岗区新园街12号", "AREA": "龙岗区", "STREETID": "60e0e740779c0a2e095cb3ee", "TELEPHONE": "(0755)33008555" }, "geometry": { "type": "MultiPoint", "coordinates": [ [ 114.481639, 22.598975 ] ] } },
{ "type": "Feature", "properties": { "NAME": "逸米酒店(深圳平湖华南城上木古店)", "ADDRESS": "广东省深圳市龙岗区平新南路25号", "AREA": "龙岗区", "STREETID": "93aa0ea620b588c3c17da24a", "TELEPHONE": "(0755)84006033" }, "geometry": { "type": "MultiPoint", "coordinates": [ [ 114.1293, 22.675198 ] ] } },
{ "type": "Feature", "properties": { "NAME": "瑞季精品酒店(深圳龙城店)", "ADDRESS": "广东省深圳市龙岗区盛龙路32号", "AREA": "龙岗区", "STREETID": "046e99b4f4c5fe9e246e9891", "TELEPHONE": "(0755)89235666" }, "geometry": { "type": "MultiPoint", "coordinates": [ [ 114.262705, 22.732935 ] ] } },
{ "type": "Feature", "properties": { "NAME": "尚景豪国际酒店", "ADDRESS": "广东省深圳市龙岗区布龙路18号", "AREA": "龙岗区", "STREETID": "db0cf33c95e7d190c9c3db33", "TELEPHONE": "(0755)89508988,18948765031" }, "geometry": { "type": "MultiPoint", "coordinates": [ [ 114.122331, 22.626462 ] ] } },
{ "type": "Feature", "properties": { "NAME": "维也纳酒店(华为天安云谷店)", "ADDRESS": "广东省深圳市龙岗区坂田街道雪岗北路2223号A栋一楼近华为基地、深圳北站", "AREA": "龙岗区", "STREETID": "f7c06355ffc1deb8c26c1430", "TELEPHONE": "(0755)88838003" }, "geometry": { "type": "MultiPoint", "coordinates": [ [ 114.067696, 22.666779 ] ] } },
{ "type": "Feature", "properties": { "NAME": "锦航酒店", "ADDRESS": "广东省深圳市龙岗区布沙路78号", "AREA": "龙岗区", "STREETID": "79cceb367c795f901e580042", "TELEPHONE": "(0755)28468288" }, "geometry": { "type": "MultiPoint", "coordinates": [ [ 114.160853, 22.612334 ] ] } },
{ "type": "Feature", "properties": { "NAME": "三联大酒店", "ADDRESS": "广东省深圳市龙岗区松源路1号", "AREA": "龙岗区", "STREETID": "e27054f5c118cdd12d4733f5", "TELEPHONE": "(0755)28286988" }, "geometry": { "type": "MultiPoint", "coordinates": [ [ 114.121479, 22.634414 ] ] } },
{ "type": "Feature", "properties": { "NAME": "速8酒店(深圳龙岗双龙地铁站店)", "ADDRESS": "广东省深圳市龙岗区龙岗大道6107号", "AREA": "龙岗区", "STREETID": "6ffe3fe8000d6aa40bccdd04", "TELEPHONE": "(0755)89908285" }, "geometry": { "type": "MultiPoint", "coordinates": [ [ 114.279743, 22.733183 ] ] } },
{ "type": "Feature", "properties": { "NAME": "本丰商务酒店", "ADDRESS": "深圳市龙岗区冲之大道与坂兴路交叉路口西北侧", "AREA": "龙岗区", "STREETID": "a200476d44d9a127c2f1cf21", "TELEPHONE": "(0755)89392888" }, "geometry": { "type": "MultiPoint", "coordinates": [ [ 114.068846, 22.645699 ] ] } },
{ "type": "Feature", "properties": { "NAME": "深圳华悦精品酒店(华南城店)", "ADDRESS": "广东省深圳市龙岗区华南大道1号华南城国际皮革具原辅料物流区l24栋", "AREA": "龙岗区", "STREETID": "cfe6b6767b800e29ddee8b07", "TELEPHONE": "(0755)89696188" }, "geometry": { "type": "MultiPoint", "coordinates": [ [ 114.132739, 22.683604 ] ] } },
{ "type": "Feature", "properties": { "NAME": "茗兰酒店(碧新路店)", "ADDRESS": "广东省深圳市龙岗区碧新路龙岗段2348号", "AREA": "龙岗区", "STREETID": "34f68ab0aabda1138f55ec43", "TELEPHONE": "(0755)84840888" }, "geometry": { "type": "MultiPoint", "coordinates": [ [ 114.270907, 22.749102 ] ] } },
{ "type": "Feature", "properties": { "NAME": "山水时尚酒店(华南城店)", "ADDRESS": "广东省深圳市龙岗区平新北路223号", "AREA": "龙岗区", "STREETID": "94735272946f1efcb8bd6347", "TELEPHONE": "(0755)84690106,(0755)84691111" }, "geometry": { "type": "MultiPoint", "coordinates": [ [ 114.126853, 22.694765 ] ] } },
{ "type": "Feature", "properties": { "NAME": "我家酒店(坂田雪象地铁站店)", "ADDRESS": "广东省深圳市龙岗区中浩大道北1号", "AREA": "龙岗区", "STREETID": "0f3dc507d0ddb5fef82213ec", "TELEPHONE": "(0755)28376678,13590170017" }, "geometry": { "type": "MultiPoint", "coordinates": [ [ 114.087295, 22.657553 ] ] } },
{ "type": "Feature", "properties": { "NAME": "新旺记酒店", "ADDRESS": "广东省深圳市龙岗区龙岗街道龙东社区爱南路63号", "AREA": "龙岗区", "STREETID": "560d5ee9dff9c15824e0a078", "TELEPHONE": "(0755)84861698,(0755)84872888" }, "geometry": { "type": "MultiPoint", "coordinates": [ [ 114.29847, 22.719105 ] ] } },
{ "type": "Feature", "properties": { "NAME": "深圳春夏秋冬商务宾馆(永香西路店)", "ADDRESS": "广东省深圳市龙岗区永香西路11号", "AREA": "龙岗区", "STREETID": "5cf52dbcd90062cbbbbd6378", "TELEPHONE": "(0755)89589918" }, "geometry": { "type": "MultiPoint", "coordinates": [ [ 114.070614, 22.627929 ] ] } },
{ "type": "Feature", "properties": { "NAME": "尤克里里客栈(深圳海角分店)", "ADDRESS": "广东省深圳市龙岗区南澳杨梅坑49号", "AREA": "龙岗区", "STREETID": "a4839c1b327e79f802897235", "TELEPHONE": "18026928396" }, "geometry": { "type": "MultiPoint", "coordinates": [ [ 114.566549458103765, 22.547608022080649 ] ] } },
{ "type": "Feature", "properties": { "NAME": "99旅馆连锁(坂田地铁站店)", "ADDRESS": "广东省深圳市龙岗区布龙路520号", "AREA": "龙岗区", "STREETID": "2f76c8ea5ea219a625d2bbd8", "TELEPHONE": "(0755)85236299" }, "geometry": { "type": "MultiPoint", "coordinates": [ [ 114.078438, 22.633837 ] ] } },
{ "type": "Feature", "properties": { "NAME": "深圳希悦酒店", "ADDRESS": "广东省深圳市龙岗区葵兴东路18号", "AREA": "龙岗区", "STREETID": "b7f3c69c38cdb39db45f1eb5", "TELEPHONE": "(0755)84201389" }, "geometry": { "type": "MultiPoint", "coordinates": [ [ 114.427288, 22.638135 ] ] } },
{ "type": "Feature", "properties": { "NAME": "花房精品民宿", "ADDRESS": "广东省深圳市龙岗区南门东路13号", "AREA": "龙岗区", "STREETID": "dcd951ce1393c5f00c0a70c8", "TELEPHONE": "1,335,299,548,618,920,000,000" }, "geometry": { "type": "MultiPoint", "coordinates": [ [ 114.520769, 22.600549 ] ] } },
{ "type": "Feature", "properties": { "NAME": "城墙根儿客栈(2号店)", "ADDRESS": "广东省深圳市龙岗区南门东路17号", "AREA": "龙岗区", "STREETID": "38ba8e98b3756ba8b6f42f48", "TELEPHONE": "18028789985" }, "geometry": { "type": "MultiPoint", "coordinates": [ [ 114.5209, 22.600985 ] ] } },
{ "type": "Feature", "properties": { "NAME": "99旅馆连锁(深圳北站店)", "ADDRESS": "广东省深圳市龙华区民宝路创业花园84栋1楼", "AREA": "龙华区", "STREETID": "d1e99e454718c60e3904b1ca", "TELEPHONE": "(0755)23003130" }, "geometry": { "type": "MultiPoint", "coordinates": [ [ 114.031088, 22.622635 ] ] } },
{ "type": "Feature", "properties": { "NAME": "7天酒店(深圳龙华店)", "ADDRESS": "广东省深圳市龙华区工业西路32号", "AREA": "龙华区", "STREETID": "48eb00589f7365b42fe67b7c", "TELEPHONE": "(0755)27740988" }, "geometry": { "type": "MultiPoint", "coordinates": [ [ 114.024209, 22.658879 ] ] } },
{ "type": "Feature", "properties": { "NAME": "曼谷一号酒店(深圳大浪店)", "ADDRESS": "广东省深圳市龙华区华宁路13号", "AREA": "龙华区", "STREETID": "cccb03694d0f0fbe8f55ecb6", "TELEPHONE": "(0755)21037666" }, "geometry": { "type": "MultiPoint", "coordinates": [ [ 113.999983, 22.696146 ] ] } },
{ "type": "Feature", "properties": { "NAME": "中保国际酒店", "ADDRESS": "广东省深圳市龙华区东环二路21号", "AREA": "龙华区", "STREETID": "cc788fde72b0dc9388fc067c", "TELEPHONE": "(0755)23332333,(0755)88888333" }, "geometry": { "type": "MultiPoint", "coordinates": [ [ 114.057234, 22.645061 ] ] } },
{ "type": "Feature", "properties": { "NAME": "城市便捷酒店(龙华汽车站店)", "ADDRESS": "广东省深圳市龙华区清龙路227号宏奕大厦A座", "AREA": "龙华区", "STREETID": "ddeca0b24b0afaa09ee32180", "TELEPHONE": "(0755)85000100" }, "geometry": { "type": "MultiPoint", "coordinates": [ [ 114.04067, 22.675251 ] ] } },
{ "type": "Feature", "properties": { "NAME": "福布斯商务酒店(大浪商业中心店)", "ADDRESS": "广东省深圳市龙华区华繁路111号", "AREA": "龙华区", "STREETID": "dac46484efdf8101cd06a4f0", "TELEPHONE": "(0755)81712188" }, "geometry": { "type": "MultiPoint", "coordinates": [ [ 113.999023, 22.6804 ] ] } },
{ "type": "Feature", "properties": { "NAME": "OYU金朵拉酒店(北站店)", "ADDRESS": "广东省深圳市龙华区民福路2号百易广场b1栋", "AREA": "龙华区", "STREETID": "81510779690c5cad940319b7", "TELEPHONE": "(0755)22233305,(0755)22233306" }, "geometry": { "type": "MultiPoint", "coordinates": [ [ 114.041535, 22.623674 ] ] } },
{ "type": "Feature", "properties": { "NAME": "卡瑞登酒店(北站广场店)", "ADDRESS": "广东省深圳市龙华区民治街道樟坑三区8栋B号1~13楼", "AREA": "龙华区", "STREETID": "8652168559fe75d9d8eced82", "TELEPHONE": "(0755)23155777" }, "geometry": { "type": "MultiPoint", "coordinates": [ [ 114.046631, 22.618962 ] ] } },
{ "type": "Feature", "properties": { "NAME": "城邦精品酒店(大和店)", "ADDRESS": "广东省深圳市龙华区人民路6号", "AREA": "龙华区", "STREETID": "ba55171c1c505fbec7f025e1", "TELEPHONE": "(0755)32909996" }, "geometry": { "type": "MultiPoint", "coordinates": [ [ 114.056269, 22.707325 ] ] } },
{ "type": "Feature", "properties": { "NAME": "喜客临商务宾馆", "ADDRESS": "广东省深圳市龙华区桔坑路6号浪漫新城5层", "AREA": "龙华区", "STREETID": "606efc6b662d55f9081cc739", "TELEPHONE": "(0755)29435533" }, "geometry": { "type": "MultiPoint", "coordinates": [ [ 114.021922, 22.736849 ] ] } },
{ "type": "Feature", "properties": { "NAME": "菲酒店(万众城店)", "ADDRESS": "广东省深圳市龙华区民治大道728号", "AREA": "龙华区", "STREETID": "19526447e79f369a16a19016", "TELEPHONE": "(0755)81483119" }, "geometry": { "type": "MultiPoint", "coordinates": [ [ 114.043963, 22.642462 ] ] } },
{ "type": "Feature", "properties": { "NAME": "圣琳娜假日酒店(龙华店)", "ADDRESS": "广东省深圳市龙华区清泉路富泉大厦北区8楼", "AREA": "龙华区", "STREETID": "86adde3c59731d71abf72974", "TELEPHONE": "(0755)82797988" }, "geometry": { "type": "MultiPoint", "coordinates": [ [ 114.039073, 22.671847 ] ] } },
{ "type": "Feature", "properties": { "NAME": "格林豪泰商务酒店(深圳东门步行街晒布地铁站店)", "ADDRESS": "广东省深圳市罗湖区东门中路2110号", "AREA": "罗湖区", "STREETID": "5ffb1816ba4da9466f476042", "TELEPHONE": "(0755)82298889" }, "geometry": { "type": "MultiPoint", "coordinates": [ [ 114.130911, 22.557686 ] ] } },
{ "type": "Feature", "properties": { "NAME": "粤海酒店", "ADDRESS": "广东省深圳市罗湖区深南东路3033号", "AREA": "罗湖区", "STREETID": "6c574e0ce46b446c3a04b19a", "TELEPHONE": "(0755)82228339" }, "geometry": { "type": "MultiPoint", "coordinates": [ [ 114.127094, 22.549577 ] ] } },
{ "type": "Feature", "properties": { "NAME": "汉庭酒店(东门步行街店)", "ADDRESS": "广东省深圳市罗湖区中兴路88号京基东方颐园1层近3号线晒布站B出口、罗湖口岸", "AREA": "罗湖区", "STREETID": "2dd37444ccce84ad40e192c6", "TELEPHONE": "(0755)36513188" }, "geometry": { "type": "MultiPoint", "coordinates": [ [ 114.133041, 22.555896 ] ] } },
{ "type": "Feature", "properties": { "NAME": "如家酒店(晒布地铁站店)", "ADDRESS": "广东省深圳市罗湖区晒布路67号", "AREA": "罗湖区", "STREETID": "88c1f9099a937f7ae01103f1", "TELEPHONE": "(0755)25186066" }, "geometry": { "type": "MultiPoint", "coordinates": [ [ 114.12732, 22.556329 ] ] } },
{ "type": "Feature", "properties": { "NAME": "鹏威酒店", "ADDRESS": "广东省深圳市罗湖区红宝路15号鹏威大厦1楼近东门商业区距地铁罗宝线大剧院站B出口300米", "AREA": "罗湖区", "STREETID": "c0c7016fdc368aae80a00c95", "TELEPHONE": "(0755)88997777" }, "geometry": { "type": "MultiPoint", "coordinates": [ [ 114.11586, 22.552673 ] ] } },
{ "type": "Feature", "properties": { "NAME": "维也纳3好酒店(深圳太安地铁站店)", "ADDRESS": "广东省深圳市罗湖区水库新村泰宁花园3033号", "AREA": "罗湖区", "STREETID": "ccae16610bc18075a0acc415", "TELEPHONE": "(0755)22981999" }, "geometry": { "type": "MultiPoint", "coordinates": [ [ 114.147985, 22.571628 ] ] } },
{ "type": "Feature", "properties": { "NAME": "柏槿酒店(深圳罗湖口岸向西地铁站店)", "ADDRESS": "广东省深圳市罗湖区新安路4号", "AREA": "罗湖区", "STREETID": "3839e5e22d8d21c84d776e35", "TELEPHONE": "(0755)82221126" }, "geometry": { "type": "MultiPoint", "coordinates": [ [ 114.135742, 22.546533 ] ] } },
{ "type": "Feature", "properties": { "NAME": "7天酒店(深圳国贸店)", "ADDRESS": "广东省深圳市罗湖区人民南路3023号", "AREA": "罗湖区", "STREETID": "fbe699acce8e12ccb75f1e2b", "TELEPHONE": "(0755)22249008,(0755)22249088" }, "geometry": { "type": "MultiPoint", "coordinates": [ [ 114.124911, 22.549078 ] ] } },
{ "type": "Feature", "properties": { "NAME": "如家酒店(黄贝岭地铁站店)", "ADDRESS": "广东省深圳市罗湖区华丽路1041号", "AREA": "罗湖区", "STREETID": "233a718f3a9ad7be774ff1f4", "TELEPHONE": "(0755)25436665" }, "geometry": { "type": "MultiPoint", "coordinates": [ [ 114.140784, 22.556524 ] ] } },
{ "type": "Feature", "properties": { "NAME": "雅园宾馆", "ADDRESS": "广东省深圳市罗湖区东门北路1001号", "AREA": "罗湖区", "STREETID": "680fb703781673858bb9887f", "TELEPHONE": "(0755)25605888" }, "geometry": { "type": "MultiPoint", "coordinates": [ [ 114.133307, 22.561527 ] ] } },
{ "type": "Feature", "properties": { "NAME": "柏槿酒店(深圳罗湖口岸店)", "ADDRESS": "广东省深圳市罗湖区沿河南路1070号罗湖金岸1133号", "AREA": "罗湖区", "STREETID": "412c512dda6f1165c51e5164", "TELEPHONE": "(0755)88303335" }, "geometry": { "type": "MultiPoint", "coordinates": [ [ 114.130038, 22.540531 ] ] } },
{ "type": "Feature", "properties": { "NAME": "迎商酒店(深圳罗湖东门店)", "ADDRESS": "广东省深圳市罗湖区文锦中路1043号", "AREA": "罗湖区", "STREETID": "4c31fcc3b0e747f81c5800f9", "TELEPHONE": "(0755)22272882" }, "geometry": { "type": "MultiPoint", "coordinates": [ [ 114.136958, 22.555041 ] ] } },
{ "type": "Feature", "properties": { "NAME": "蓬客精品酒店(深圳宝岗店)", "ADDRESS": "广东省深圳市罗湖区宝岗路田心大厦1楼(地铁7号线笋岗地铁站C2出口北300米路东)", "AREA": "罗湖区", "STREETID": "68b169922a473750b75f1e31", "TELEPHONE": "(0755)25852288" }, "geometry": { "type": "MultiPoint", "coordinates": [ [ 114.119454, 22.573477 ] ] } },
{ "type": "Feature", "properties": { "NAME": "迎商酒店(罗湖口岸火车站店)", "ADDRESS": "广东省深圳市罗湖区东门南路1036号", "AREA": "罗湖区", "STREETID": "9c1087a2d13c8f8408f5ebb8", "TELEPHONE": "(0755)88896550" }, "geometry": { "type": "MultiPoint", "coordinates": [ [ 114.133881, 22.544874 ] ] } },
{ "type": "Feature", "properties": { "NAME": "深圳桐林客栈", "ADDRESS": "广东省深圳市罗湖区中兴路168号", "AREA": "罗湖区", "STREETID": "db4f7beb546181a97369d37d", "TELEPHONE": "(0755)82153001" }, "geometry": { "type": "MultiPoint", "coordinates": [ [ 114.13298, 22.556384 ] ] } },
{ "type": "Feature", "properties": { "NAME": "7天酒店(深圳海上世界店)", "ADDRESS": "广东省深圳市南山区太子路a栋1楼", "AREA": "南山区", "STREETID": "d24e48ebff2356adafee7a7c", "TELEPHONE": "(0755)26894368" }, "geometry": { "type": "MultiPoint", "coordinates": [ [ 113.931226, 22.492881 ] ] } },
{ "type": "Feature", "properties": { "NAME": "莫泰酒店(南海大道店)", "ADDRESS": "广东省深圳市南山区南海大道3005号荟芳园d栋2层", "AREA": "南山区", "STREETID": "63513ee9d191b1a13010aff4", "TELEPHONE": "(0755)26079111" }, "geometry": { "type": "MultiPoint", "coordinates": [ [ 113.935584, 22.533403 ] ] } },
{ "type": "Feature", "properties": { "NAME": "八号连锁酒店(世界之窗欢乐谷店)", "ADDRESS": "广东省深圳市南山区深南大道9039-3号白石洲万众市场3楼", "AREA": "南山区", "STREETID": "fb96936f1ffc2006c61e51f5", "TELEPHONE": "(0755)86565001" }, "geometry": { "type": "MultiPoint", "coordinates": [ [ 113.974787, 22.541985 ] ] } },
{ "type": "Feature", "properties": { "NAME": "中南海滨大酒店", "ADDRESS": "广东省深圳市南山区南新路3125号中南半岛大厦2楼近科技园、地铁罗宝线大新站A出口", "AREA": "南山区", "STREETID": "d146b388098757c77402697d", "TELEPHONE": "1" }, "geometry": { "type": "MultiPoint", "coordinates": [ [ 113.926164, 22.543795 ] ] } },
{ "type": "Feature", "properties": { "NAME": "华兹酒店", "ADDRESS": "广东省深圳市南山区乌石路11号", "AREA": "南山区", "STREETID": "b6284efddc7f7e0e2ce67b5d", "TELEPHONE": "(0755)26606557" }, "geometry": { "type": "MultiPoint", "coordinates": [ [ 113.955129, 22.565826 ] ] } },
{ "type": "Feature", "properties": { "NAME": "雅园塘朗酒店(深圳北站店)", "ADDRESS": "广东省深圳市南山区学苑大道1133-1号", "AREA": "南山区", "STREETID": "5865b2b430b20282a5c756a4", "TELEPHONE": "(0755)22233030,13823367740" }, "geometry": { "type": "MultiPoint", "coordinates": [ [ 114.000986, 22.598129 ] ] } },
{ "type": "Feature", "properties": { "NAME": "深圳雅园龙井酒店", "ADDRESS": "广东省深圳市南山区龙井路16-2号龙井大厦6~8楼", "AREA": "南山区", "STREETID": "972017f510d51c7d45572634", "TELEPHONE": "(0755)22233011" }, "geometry": { "type": "MultiPoint", "coordinates": [ [ 113.981078, 22.565326 ] ] } },
{ "type": "Feature", "properties": { "NAME": "松坪山宾馆", "ADDRESS": "广东省深圳市南山区万兴街2号", "AREA": "南山区", "STREETID": "61658eb309b25f8c40afe62f", "TELEPHONE": "1" }, "geometry": { "type": "MultiPoint", "coordinates": [ [ 113.957032, 22.563302 ] ] } },
{ "type": "Feature", "properties": { "NAME": "深圳优铂精品连锁酒店(西丽分店)", "ADDRESS": "广东省深圳市南山区珠光路96号", "AREA": "南山区", "STREETID": "4141f0f359469633100daa68", "TELEPHONE": "(0755)26919995" }, "geometry": { "type": "MultiPoint", "coordinates": [ [ 113.969119, 22.575951 ] ] } },
{ "type": "Feature", "properties": { "NAME": "他她商务公寓(深圳大学城地铁站店)", "ADDRESS": "广东省深圳市南山区留仙大道1201号大学城创客小镇6栋", "AREA": "南山区", "STREETID": "3770cf97241f79481fe99986", "TELEPHONE": "(0755)26902457" }, "geometry": { "type": "MultiPoint", "coordinates": [ [ 113.968759, 22.5864 ] ] } },
{ "type": "Feature", "properties": { "NAME": "深圳爱尚酒店式公寓", "ADDRESS": "广东省深圳市南山区东滨路新一代国际公寓a栋", "AREA": "南山区", "STREETID": "4693015b608f574beee4a56d", "TELEPHONE": "(0755)26678387,13670042291" }, "geometry": { "type": "MultiPoint", "coordinates": [ [ 113.931231, 22.511013 ] ] } },
{ "type": "Feature", "properties": { "NAME": "7天酒店(坪山店)", "ADDRESS": "广东省深圳市坪山区深汕路坪山段195号", "AREA": "坪山区", "STREETID": "5508504d7b67a6d2c7f02544", "TELEPHONE": "(0755)84605222" }, "geometry": { "type": "MultiPoint", "coordinates": [ [ 114.352316, 22.702411 ] ] } },
{ "type": "Feature", "properties": { "NAME": "好优客连锁酒店(深圳坪山比亚迪店)", "ADDRESS": "广东省深圳市坪山区金田路62号", "AREA": "坪山区", "STREETID": "30204859a18d7b469d9d680d", "TELEPHONE": "(0755)82994888" }, "geometry": { "type": "MultiPoint", "coordinates": [ [ 114.386981, 22.697098 ] ] } },
{ "type": "Feature", "properties": { "NAME": "深圳大万酒店", "ADDRESS": "广东省深圳市坪山区新区坪山街道坪环社区大万新村十六巷8号南边5-7层", "AREA": "坪山区", "STREETID": "b9fb77938dc7e6c79222e067", "TELEPHONE": "(0755)89381121,(0755)89381131" }, "geometry": { "type": "MultiPoint", "coordinates": [ [ 114.347784, 22.686908 ] ] } },
{ "type": "Feature", "properties": { "NAME": "海之屋酒店公寓(大梅沙东部华侨城店)", "ADDRESS": "广东省深圳市盐田区梅沙街道大梅沙社区环梅路1号深圳大梅沙8号仓F1", "AREA": "盐田区", "STREETID": "97f6a380753a44c148fc8d4e", "TELEPHONE": "13691601366" }, "geometry": { "type": "MultiPoint", "coordinates": [ [ 114.31491, 22.60455 ] ] } },
{ "type": "Feature", "properties": { "NAME": "深圳大梅沙全海景公寓(凌海店)", "ADDRESS": "广东省深圳市盐田区环梅路6号", "AREA": "盐田区", "STREETID": "7c42a3c53ff4f7bacb213d6b", "TELEPHONE": "13715399977" }, "geometry": { "type": "MultiPoint", "coordinates": [ [ 114.31807, 22.60434 ] ] } }
]
}
